{
	"36fdfadb07770933f0f5a619": {
		"oid": "36fdfadb07770933f0f5a619",
		"userId": "tsoukj",
		"latitude": "40.626452",
		"longitude": "22.948426",
		"name": "White Tower",
		"tag": ["Museum", "Landmark", "Monument"],
		"url": "https://en.wikipedia.org/wiki/White_Tower_of_Thessaloniki",
		"ratings": [{
			"userId": "tsoukj",
			"rating": 3
		}, {
			"userId": "mike",
			"rating": 5
		}]
	},
	"607470bb15877137288e6275": {
		"oid": "607470bb15877137288e6275",
		"userId": "tsoukj",
		"latitude": "40.626275",
		"longitude": "22.954619",
		"name": "OTE Tower",
		"tag": ["Landmark"],
		"url": "https://en.wikipedia.org/wiki/OTE_Tower",
		"ratings": [{
			"userId": "tsoukj",
			"rating": 4
		}]
	},
	"68f3e0d6d683453271286062": {
		"oid": "68f3e0d6d683453271286062",
		"userId": "tsoukj",
		"latitude": "40.629956",
		"longitude": "22.949827",
		"name": "Palace of Galerius",
		"tag": ["Landmark", "Monument"],
		"url": "https://el.wikipedia.org/wiki/%CE%91%CE%BD%CE%AC%CE%BA%CF%84%CE%BF%CF%81%CE%B1_%CF%84%CE%BF%CF%85_%CE%93%CE%B1%CE%BB%CE%AD%CF%81%CE%B9%CE%BF%CF%85",
		"ratings": [{
			"userId": "tsoukj",
			"rating": 4
		}]
	},
	"39755337d4932aff451278e7": {
		"oid": "39755337d4932aff451278e7",
		"userId": "tsoukj",
		"latitude": "40.632241",
		"longitude": "22.951743",
		"name": "Arch of Galerius",
		"tag": ["Landmark", "Monument"],
		"url": "https://en.wikipedia.org/wiki/Arch_of_Galerius_and_Rotunda",
		"ratings": [{
			"userId": "tsoukj",
			"rating": 5
		}]
	},
	"ef7feec4b672cf54896a48fd": {
		"oid": "ef7feec4b672cf54896a48fd",
		"userId": "tsoukj",
		"latitude": "40.633232",
		"longitude": "22.952729",
		"name": "Rotunda",
		"tag": ["Religious site", "Landmark", "Monument"],
		"url": "https://en.wikipedia.org/wiki/Arch_of_Galerius_and_Rotunda",
		"ratings": [{
			"userId": "tsoukj",
			"rating": 3
		}]
	},
	"957c9c578abe079c887fa8c9": {
		"oid": "957c9c578abe079c887fa8c9",
		"userId": "tsoukj",
		"latitude": "40.635638",
		"longitude": "22.954134",
		"name": "Ataturk Museum",
		"tag": ["Museum", "Landmark", "Monument"],
		"url": "https://en.wikipedia.org/wiki/Atat%C3%BCrk_Museum_(Thessaloniki)",
		"ratings": [{
			"userId": "tsoukj",
			"rating": 3
		}]
	},
	"713f8ca40c7f8d9710e1414b": {
		"oid": "713f8ca40c7f8d9710e1414b",
		"userId": "tsoukj",
		"latitude": "40.632823",
		"longitude": "22.946890",
		"name": "Hagia Sophia",
		"tag": ["Religious site", "Landmark", "Monument"],
		"url": "https://en.wikipedia.org/wiki/Hagia_Sophia,_Thessaloniki",
		"ratings": [{
			"userId": "tsoukj",
			"rating": 4
		}]
	},
	"78ff8db0ebe699d58fb915c6": {
		"oid": "78ff8db0ebe699d58fb915c6",
		"userId": "tsoukj",
		"latitude": "40.632335",
		"longitude": "22.940796",
		"name": "Aristotelous Square",
		"tag": ["Landmark"],
		"url": "https://en.wikipedia.org/wiki/Aristotelous_Square",
		"ratings": [{
			"userId": "tsoukj",
			"rating": 5
		}]
	},
	"8dd0514a52995c1ccf346067": {
		"oid": "8dd0514a52995c1ccf346067",
		"userId": "tsoukj",
		"latitude": "40.635734",
		"longitude": "22.945210",
		"name": "Bey Hamam",
		"tag": ["Landmark", "Monument"],
		"url": "https://en.wikipedia.org/wiki/Bey_Hamam",
		"ratings": [{
			"userId": "tsoukj",
			"rating": 3
		}]
	},
	"ca6ea8965d25dc6d9d5b7643": {
		"oid": "ca6ea8965d25dc6d9d5b7643",
		"userId": "tsoukj",
		"latitude": "40.637638",
		"longitude": "22.944795",
		"name": "Ancient Roman Agora",
		"tag": ["Landmark", "Monument", "Museum"],
		"url": "https://en.wikipedia.org/wiki/Agora",
		"ratings": [{
			"userId": "tsoukj",
			"rating": 4
		}]
	},
	"4497ad5a62194685d624734f": {
		"oid": "4497ad5a62194685d624734f",
		"userId": "tsoukj",
		"latitude": "40.638803",
		"longitude": "22.947753",
		"name": "Hagios Demetrios",
		"tag": ["Religious site", "Landmark", "Monument"],
		"url": "https://en.wikipedia.org/wiki/Hagios_Demetrios",
		"ratings": [{
			"userId": "tsoukj",
			"rating": 5
		}]
	},
	"d15a61dfb3552182e69677b7": {
		"oid": "d15a61dfb3552182e69677b7",
		"userId": "tsoukj",
		"latitude": "40.623919",
		"longitude": "22.955017",
		"name": "Museum of Byzantine Culture",
		"tag": ["Museum"],
		"url": "https://en.wikipedia.org/wiki/Museum_of_Byzantine_Culture",
		"ratings": [{
			"userId": "tsoukj",
			"rating": 4
		}]
	},
	"7d0955bb53bfb6221a16354c": {
		"oid": "7d0955bb53bfb6221a16354c",
		"userId": "tsoukj",
		"latitude": "40.644079",
		"longitude": "22.961883",
		"name": "Heptapyrgion",
		"tag": ["Landmark", "Monument"],
		"url": "https://en.wikipedia.org/wiki/Heptapyrgion_(Thessaloniki)",
		"ratings": [{
			"userId": "tsoukj",
			"rating": 5
		}]
	},
	"05b0068c50a23d36fa91437a": {
		"oid": "05b0068c50a23d36fa91437a",
		"userId": "tsoukj",
		"latitude": "40.658047",
		"longitude": "22.931542",
		"name": "State Museum of Contemporary Art",
		"tag": ["Museum"],
		"url": "https://en.wikipedia.org/wiki/State_Museum_of_Contemporary_Art",
		"ratings": [{
			"userId": "tsoukj",
			"rating": 5
		}]
	},
	"f030cedffa2f30fa89e10f3b": {
		"oid": "f030cedffa2f30fa89e10f3b",
		"userId": "tsoukj",
		"latitude": "40.641796",
		"longitude": "22.954503",
		"name": "Vlatades Monastery",
		"tag": ["Religious site", "Monument"],
		"url": "https://en.wikipedia.org/wiki/Vlatades_Monastery",
		"ratings": [{
			"userId": "tsoukj",
			"rating": 5
		}]
	},
	"4efabf970f3d69a0d0a86481": {
		"oid": "4efabf970f3d69a0d0a86481",
		"userId": "tsoukj",
		"latitude": "40.641778",
		"longitude": "22.952353",
		"name": "Church of Hosios David",
		"tag": ["Religious site"],
		"url": "https://en.wikipedia.org/wiki/Church_of_Hosios_David",
		"ratings": [{
			"userId": "tsoukj",
			"rating": 4
		}]
	},
	"8eae94bb984484ccb99f60d5": {
		"oid": "8eae94bb984484ccb99f60d5",
		"userId": "tsoukj",
		"latitude": "40.637690",
		"longitude": "22.956168",
		"name": "Church of Saint Nicholas Orphanos",
		"tag": ["Religious site"],
		"url": "https://en.wikipedia.org/wiki/Church_of_Saint_Nicholas_Orphanos",
		"ratings": [{
			"userId": "tsoukj",
			"rating": 4
		}]
	},
	"e1549cc4991d4fa27653fe36": {
		"oid": "e1549cc4991d4fa27653fe36",
		"userId": "tsoukj",
		"latitude": "40.643166",
		"longitude": "22.944281",
		"name": "Church of Saint Catherine",
		"tag": ["Religious site"],
		"url": "https://en.wikipedia.org/wiki/Church_of_Saint_Catherine,_Thessaloniki",
		"ratings": [{
			"userId": "tsoukj",
			"rating": 4
		}]
	},
	"0cdc0cb812d76eccb3f3d9be": {
		"oid": "0cdc0cb812d76eccb3f3d9be",
		"userId": "tsoukj",
		"latitude": "40.639170",
		"longitude": "22.949650",
		"name": "Alaca Imaret Mosque",
		"tag": ["Landmark", "Monument"],
		"url": "https://en.wikipedia.org/wiki/Alaca_Imaret_Mosque",
		"ratings": [{
			"userId": "tsoukj",
			"rating": 4
		}]
	},
	"5dca212f806f49df07dccb93": {
		"oid": "5dca212f806f49df07dccb93",
		"userId": "tsoukj",
		"latitude": "40.636793",
		"longitude": "22.943656",
		"name": "Church of Panagia Chalkeon",
		"tag": ["Religious site", "Landmark", "Monument"],
		"url": "https://en.wikipedia.org/wiki/Church_of_Panagia_Chalkeon",
		"ratings": [{
			"userId": "tsoukj",
			"rating": 4
		}]
	},
	"3bbfc978605e466b95cfc014": {
		"oid": "3bbfc978605e466b95cfc014",
		"userId": "tsoukj",
		"latitude": "40.636600",
		"longitude": "22.941178",
		"name": "Bedesten of Thessaloniki",
		"tag": ["Landmark"],
		"url": "https://en.wikipedia.org/wiki/Bedesten",
		"ratings": [{
			"userId": "tsoukj",
			"rating": 3
		}]
	},
	"b1b0f14305dd3841000dc7a3": {
		"oid": "b1b0f14305dd3841000dc7a3",
		"userId": "tsoukj",
		"latitude": "40.634980",
		"longitude": "22.936437",
		"name": "Ladadika",
		"tag": ["Landmark"],
		"url": "https://en.wikipedia.org/wiki/Ladadika",
		"ratings": [{
			"userId": "tsoukj",
			"rating": 5
		}]
	},
	"792cbc1c88b65acf8206e700": {
		"oid": "792cbc1c88b65acf8206e700",
		"userId": "tsoukj",
		"latitude": "40.632290",
		"longitude": "22.941236",
		"name": "Statue of Aristotle",
		"tag": ["Landmark", "Monument"],
		"url": "https://en.wikipedia.org/wiki/Aristotle",
		"ratings": [{
			"userId": "tsoukj",
			"rating": 4
		}]
	},
	"152027b70ef00e7a20dc45de": {
		"oid": "152027b70ef00e7a20dc45de",
		"userId": "tsoukj",
		"latitude": "40.634966",
		"longitude": "22.947929",
		"name": "Church of the Acheiropoietos",
		"tag": ["Religious site", "Landmark", "Monument"],
		"url": "https://en.wikipedia.org/wiki/Church_of_the_Acheiropoietos",
		"ratings": [{
			"userId": "tsoukj",
			"rating": 4
		}]
	},
	"5760ca91e53c9efd051a4585": {
		"oid": "5760ca91e53c9efd051a4585",
		"userId": "tsoukj",
		"latitude": "40.635050",
		"longitude": "22.937702",
		"name": "Museum of Ancient Greek, Byzantine and Post-Byzantine Instruments",
		"tag": ["Museum"],
		"url": "https://en.wikipedia.org/wiki/Museum_of_Ancient_Greek,_Byzantine_and_Post-Byzantine_Instruments",
		"ratings": [{
			"userId": "tsoukj",
			"rating": 5
		}]
	},
	"5b394b00fd0fe3afe9cd743f": {
		"oid": "5b394b00fd0fe3afe9cd743f",
		"userId": "tsoukj",
		"latitude": "40.635128",
		"longitude": "22.939543",
		"name": "Jewish Museum of Thessaloniki",
		"tag": ["Museum"],
		"url": "https://en.wikipedia.org/wiki/Jewish_Museum_of_Thessaloniki",
		"ratings": [{
			"userId": "tsoukj",
			"rating": 4
		}]
	},
	"3eae10828a9a7794b2f8ce3f": {
		"oid": "3eae10828a9a7794b2f8ce3f",
		"userId": "tsoukj",
		"latitude": "40.632833",
		"longitude": "22.935490",
		"name": "Museum of Photography, Thessaloniki",
		"tag": ["Museum"],
		"url": "https://en.wikipedia.org/wiki/Museum_of_Photography,_Thessaloniki",
		"ratings": [{
			"userId": "tsoukj",
			"rating": 5
		}]
	},
	"702c31455eab9ca18ebd3277": {
		"oid": "702c31455eab9ca18ebd3277",
		"userId": "tsoukj",
		"latitude": "40.630842",
		"longitude": "22.943431",
		"name": "Museum for the Macedonian Struggle",
		"tag": ["Museum"],
		"url": "https://en.wikipedia.org/wiki/Museum_for_the_Macedonian_Struggle_(Thessaloniki)",
		"ratings": [{
			"userId": "tsoukj",
			"rating": 4
		}]
	},
	"71c20421b3882dd6d84f676c": {
		"oid": "71c20421b3882dd6d84f676c",
		"userId": "tsoukj",
		"latitude": "40.627268",
		"longitude": "22.954664",
		"name": "Macedonian Museum of Contemporary Art",
		"tag": ["Museum"],
		"url": "https://en.wikipedia.org/wiki/Macedonian_Museum_of_Contemporary_Art",
		"ratings": [{
			"userId": "tsoukj",
			"rating": 4
		}]
	},
	"eab3a84a4730f0be44058b6c": {
		"oid": "eab3a84a4730f0be44058b6c",
		"userId": "tsoukj",
		"latitude": "40.625170",
		"longitude": "22.953909",
		"name": "Archaeological Museum of Thessaloniki",
		"tag": ["Museum"],
		"url": "https://en.wikipedia.org/wiki/Archaeological_Museum_of_Thessaloniki",
		"ratings": [{
			"userId": "tsoukj",
			"rating": 5
		}]
	},
	"a8717777fe87a2dc38f5cd44": {
		"oid": "a8717777fe87a2dc38f5cd44",
		"userId": "tsoukj",
		"latitude": "40.624414",
		"longitude": "22.959927",
		"name": "War Museum of Thessaloniki",
		"tag": ["Museum"],
		"url": "https://en.wikipedia.org/wiki/War_Museum_of_Thessaloniki",
		"ratings": [{
			"userId": "tsoukj",
			"rating": 4
		}]
	},
	"75bb3c8e2d4007fa7a337045": {
		"oid": "75bb3c8e2d4007fa7a337045",
		"userId": "tsoukj",
		"latitude": "40.632418",
		"longitude": "22.960451",
		"name": "Teloglion Foundation of Art",
		"tag": ["Museum"],
		"url": "https://en.wikipedia.org/wiki/Teloglion_Foundation_of_Art",
		"ratings": [{
			"userId": "tsoukj",
			"rating": 3
		}]
	},
	"838ce048febdf23dac65e974": {
		"oid": "838ce048febdf23dac65e974",
		"userId": "tsoukj",
		"latitude": "40.610178",
		"longitude": "22.952120",
		"name": "Folk Art and Ethnological Museum of Macedonia and Thrace",
		"tag": ["Museum"],
		"url": "https://en.wikipedia.org/wiki/Folk_Art_and_Ethnological_Museum_of_Macedonia_and_Thrace",
		"ratings": [{
			"userId": "tsoukj",
			"rating": 5
		}]
	}
}
